 [
  {
  "imgName": "bailixia.jpg",
  "scenicName": "百里峡",
  "topLeftLat": 39.6903851,
  "topLeftLng": 115.391619,
  "zoomRate": 0.44,
  "minTileLevel": 9,
  "maxTileLevel": 11,
  "originalImageWidth": 1080,
  "originalImageHeight": 1920,
  "tileImageFolder": "/Maps/bailixia",
  "locationList":
  [
   {
   "name": "华容道",
   "lat": 39.674179,
   "lng": 115.399815,
   "desc": "幽深的峡谷中，《三国演义》中曹操败走华容道外景拍摄地。"
   },
   {
   "name": "一线天",
   "lat": 39.668212,
   "lng": 115.405083,
   "desc": "百里峡可以称得上是“百里一线天”，只不过宽窄程度不同罢了移动图片，最宽可达十几米，最窄只不过0.83米，这里悬崖峭壁，雄险惊心，窄涧幽谷，天光一线，真有一种“双崖依天立，万仞从地劈”的意境，如此狭窄的嶂谷是怎样形成的呢？这主要是由于岩层中发育了宏大的垂直的构造裂隙（节理）经物理风化，岩层就顺着这些节理垮塌，间歇性洪水冲刷谷底及侵蚀两壁，使垂直地面的裂隙不断扩张形成十分狭窄的嶂谷，“一线天”就是嶂谷形成的初期阶段。"
   },
   {
   "name": "金线悬针",
   "lat": 39.667157,
   "lng": 115.404957,
   "desc": "峡谷内山体之间有一条垂直的裂隙，好似一条线，下面有一圆孔，好比是一枚针的针眼，再往下看就是针的主体。一条线倒悬着一枚针，因为每年夏至时节正午时分，太阳直射下来，形成一条金线，故称“金线悬针”。这里由于嶂谷中南北方向的裂隙，原来是沿着嶂谷延伸的，当嶂谷突然转变时，原有的裂隙继续向南延伸，因此在岩壁上就留下了这样的一条大而垂直的裂隙。"
   },
   {
   "name": "仙官指路",
   "lat": 39.673733,
   "lng": 115.392363,
   "desc": "进入百里峡景区内，两个山脊之间有一石人仙官，这就是进入百里峡景区的第一个景点“仙官指路”，在“仙官指路”右边的那条峡谷就是蝎子沟，因沟中遍生蝎子草而得名，蝎子草属于荨麻科，一年生草本植物，当人畜触碰其叶，就像蝎子蛰了一样疼痛，但半个小时后疼痛便会自然消失了，沟内有龙潭映月、铁索崖、摩耳崖等著名景点，令人望而生畏、叹为观止。"
   },
   {
   "name": "老虎嘴",
   "lat": 39.669436,
   "lng": 115.405407,
   "desc": "一弧形悬崖构成的圆洞，极像老虎张着的血盆大口，有诗云“京畿胜景在三坡，三坡魅力数苟各。幽峡三道藏绝景，虎嘴天桥一银河”。诗中所指虎嘴便是这里。进入虎嘴您便会充分领会百里峡雄险的特点了。"
   },
   {
   "name": "回首观音",
   "lat": 39.66488,
   "lng": 115.404153,
   "desc": "走在峡谷中，回头看一下，在侧山壁上有一尊“观音”石雕，栩栩如生，惟妙惟肖。这完全是大自然的杰作。主要是由于岩层中发育了多组垂直裂隙，垮塌后形成岩柱，在经球状风化和物理风化形成观音的头和脖子，因为走到这里我们必须回头才能一睹观音的芳容，故成“回首观音”，在这里我们可以双手合十虔诚的拜一拜观音。"
   },
   {
   "name": "擎天玉柱",
   "lat": 39.667442,
   "lng": 115.412566,
   "desc": "高高耸立、险竣壮观的石柱，因其高耸入云故称，也叫“玉柱擎天”喻意为撑起一片天空之意。这是在10亿年前，形成的燧石条带白云岩中发育多组直立裂隙，经后期风化作用，石柱周围的石块垮落下来，就留下了我们看到的高高耸立的石柱。"
   },
   {
   "name": "水帘洞",
   "lat": 39.673402,
   "lng": 115.406799,
   "desc": "您便会自然的想到“花果山”，不过咱这里的山不叫“花果山”而叫“灵芝山”，因此山盛产乌灵脂而得名，钻过这条长达132米的“水帘洞”就可到达百里峡又一侧门——灵芝山票口，且有缆车和滑索直通景区外公路。"
   },
   {
   "name": "牛角峰",
   "lat": 39.671874,
   "lng": 115.404445,
   "desc": "站在这里抬头向上看，有一单体独立山峰，右侧成一直线，左侧为一弧形悬崖，从整体形状上看就像一只倒立的牛犄角，故此得名“牛角峰”。山峰右侧有一土路，顺路攀岩，好像可以直接进入牛角尖儿似的，其实这里是形似有门却无门，我们是永远钻不过去的。"
   },
   {
   "name": "爽心瀑",
   "lat": 39.66865,
   "lng": 115.405402,
   "desc": "虎口脱险后，继续前行，前边就是海棠峪里最大的一道瀑布，站在这里空气清新，气候凉爽，使人心旷神怡，称“爽心瀑”。一路上我们聆听着清脆的鸟语，潺潺的水声，清风拂面，让人感觉如身在“世外桃源”一般。"
   }
   ]
  },
  {
  "imgName": "yugudong.jpg",
  "scenicName": "鱼骨洞",
  "topLeftLat": 39.770055,
  "topLeftLng": 115.41445,
  "zoomRate": 1.991150442477876,
  "minTileLevel": 10,
  "maxTileLevel": 12,
  "originalImageWidth": 2539,
  "originalImageHeight": 1594,
  "tileImageFolder": "/Maps/yugudong",
  "locationList":
  [
   {
   "name": "八仙过海",
   "lat": 39.768816,
   "lng": 115.421724,
   "desc": "幽深的峡谷中，《三国演义》中曹操败走华容道外景拍摄地。"
   },
   {
   "name": "石瀑厅",
   "lat": 39.769617,
   "lng": 115.422986,
   "desc": "幽深的峡谷中，《三国演义》中曹操败走华容道外景拍摄地。"
   },
   {
   "name": "千里眼和顺风耳",
   "lat": 39.768082,
   "lng": 115.420911,
   "desc": "幽深的峡谷中，《三国演义》中曹操败走华容道外景拍摄地。"
   },
   {
   "name": "酒仙",
   "lat": 39.765648,
   "lng": 115.417641,
   "desc": "幽深的峡谷中，《三国演义》中曹操败走华容道外景拍摄地。"
   }
   ]
  }
  ]