 [
  {
  "imgName": "/bailixia.jpg",
  "topLeftLat": 39.6903851,
  "topLeftLng": 115.391619,
  "zoomRate": 0.44,
  "locationList":
  [
   {
   "name": "火车站",
   "lat": 39.689267,
   "lng": 115.40061
   },
   {
   "name": "抗洪纪念",
   "lat": 39.685882,
   "lng": 115.398315
   },
   {
   "name": "停车场",
   "lat": 39.680111,
   "lng": 115.39275
   },
   {
   "name": "野三坡剧场",
   "lat": 39.679434,
   "lng": 115.393109
   },
   {
   "name": "野三坡景区商业街",
   "lat": 39.677507,
   "lng": 115.391725
   },
   {
   "name": "野三坡地质博物馆",
   "lat": 39.675467,
   "lng": 115.39222
   },
   {
   "name": "野三坡景区电瓶车车站",
   "lat": 39.674003,
   "lng": 115.392058
   },
   {
   "name": "华容道",
   "lat": 39.674179,
   "lng": 115.399815
   },
   {
   "name": "天下第一峡",
   "lat": 39.674168,
   "lng": 115.40401
   },
   {
   "name": "百里峡景区-医务室",
   "lat": 39.672002,
   "lng": 115.404167
   },
   {
   "name": "百里峡景区-商品亭",
   "lat": 39.664789,
   "lng": 115.404203
   },
   {
   "name": "百里峡景区休息亭",
   "lat": 39.662571,
   "lng": 115.404091
   },
   {
   "name": "海棠欲索道上站",
   "lat": 39.663414,
   "lng": 115.407437
   },
   {
   "name": "怪峰",
   "lat": 39.667559,
   "lng": 115.41019
   },
   {
   "name": "百里峡索道上站",
   "lat": 39.674866,
   "lng": 115.407181
   },
   {
   "name": "野三坡竹排",
   "lat": 39.681773,
   "lng": 115.405901
   },
   {
   "name": "蟒蛇出洞",
   "lat": 39.667384,
   "lng": 115.40499
   },
   {
   "name": "怡心瀑",
   "lat": 39.668002,
   "lng": 115.409001
   }
   ]
  }
  ]