 [
  {
  "imgName": "yugudong.jpg",
  "scenicName": "鱼骨洞",
  "topLeftLat": 39.769957,
  "topLeftLng": 115.415176,
  "zoomRate": 1.991150442477876,
  "minTileLevel": 10,
  "maxTileLevel": 12,
  "tileImageFolder": "/Maps/yugudong",
  "locationList":
  [
   {
   "name": "八仙过海",
   "lat": 39.768816,
   "lng": 115.421724,
   "desc": "幽深的峡谷中，《三国演义》中曹操败走华容道外景拍摄地。"
   },
   {
   "name": "石瀑厅",
   "lat": 39.769617,
   "lng": 115.422986,
   "desc": "幽深的峡谷中，《三国演义》中曹操败走华容道外景拍摄地。"
   },
   {
   "name": "千里眼和顺风耳",
   "lat": 39.768082,
   "lng": 115.420911,
   "desc": "幽深的峡谷中，《三国演义》中曹操败走华容道外景拍摄地。"
   },
   {
   "name": "酒仙",
   "lat": 39.765648,
   "lng": 115.417641,
   "desc": "幽深的峡谷中，《三国演义》中曹操败走华容道外景拍摄地。"
   }
   ]
  }
  ]